<?xml version="1.0" encoding="UTF-8"?>
<kml xmlns="http://www.opengis.net/kml/2.2">
  <Document>
    <name>结点</name>
    <Style id="icon-1602-097138-labelson">
      <IconStyle>
        <color>ff387109</color>
        <scale>1</scale>
        <Icon>
          <href>http://www.gstatic.com/mapspro/images/stock/503-wht-blank_maps.png</href>
        </Icon>
      </IconStyle>
    </Style>
    <Style id="icon-1602-673AB7-labelson-nodesc">
      <IconStyle>
        <color>ffb73a67</color>
        <scale>1</scale>
        <Icon>
          <href>http://www.gstatic.com/mapspro/images/stock/503-wht-blank_maps.png</href>
        </Icon>
      </IconStyle>
      <BalloonStyle>
        <text><![CDATA[<h3>$[name]</h3>]]></text>
      </BalloonStyle>
    </Style>
    <Style id="icon-1602-FFD600-labelson-nodesc">
      <IconStyle>
        <color>ff00d6ff</color>
        <scale>1</scale>
        <Icon>
          <href>http://www.gstatic.com/mapspro/images/stock/503-wht-blank_maps.png</href>
        </Icon>
      </IconStyle>
      <BalloonStyle>
        <text><![CDATA[<h3>$[name]</h3>]]></text>
      </BalloonStyle>
    </Style>
    <Placemark>
      <name>Tmono</name>
      <styleUrl>#icon-1602-FFD600-labelson-nodesc</styleUrl>
      <Point>
        <coordinates>
          116.334745,39.981174,0
        </coordinates>
      </Point>
    </Placemark>
    <Placemark>
      <name>菜神 nakami</name>
      <styleUrl>#icon-1602-FFD600-labelson-nodesc</styleUrl>
      <Point>
        <coordinates>
          116.413351,40.0335272,0
        </coordinates>
      </Point>
    </Placemark>
    <Placemark>
      <name>飘神 Xppiao</name>
      <styleUrl>#icon-1602-FFD600-labelson-nodesc</styleUrl>
      <Point>
        <coordinates>
          116.3603211,39.9770879,0
        </coordinates>
      </Point>
    </Placemark>
    <Placemark>
      <name>古风</name>
      <description>滨江区雪峰银座905室</description>
      <styleUrl>#icon-1602-097138-labelson</styleUrl>
      <Point>
        <coordinates>
          120.2078801,30.2072227,0
        </coordinates>
      </Point>
    </Placemark>
    <Placemark>
      <name>1957</name>
      <styleUrl>#icon-1602-FFD600-labelson-nodesc</styleUrl>
      <Point>
        <coordinates>
          116.4304286,39.9741932,0
        </coordinates>
      </Point>
    </Placemark>
    <Placemark>
      <name>岛娘 Minako</name>
      <styleUrl>#icon-1602-673AB7-labelson-nodesc</styleUrl>
      <Point>
        <coordinates>
          121.435737,31.223308,0
        </coordinates>
      </Point>
    </Placemark>
    <Placemark>
      <name>5sWind</name>
      <styleUrl>#icon-1602-673AB7-labelson-nodesc</styleUrl>
      <Point>
        <coordinates>
          121.5083447,31.3035121,0
        </coordinates>
      </Point>
    </Placemark>
    <Placemark>
      <name>Nick</name>
      <styleUrl>#icon-1602-673AB7-labelson-nodesc</styleUrl>
      <Point>
        <coordinates>
          121.5224143,31.1873637,0
        </coordinates>
      </Point>
    </Placemark>
    <Placemark>
      <name>高金</name>
      <styleUrl>#icon-1602-673AB7-labelson-nodesc</styleUrl>
      <Point>
        <coordinates>
          121.363789,31.2152,0
        </coordinates>
      </Point>
    </Placemark>
    <Placemark>
      <name>udspj</name>
      <styleUrl>#icon-1602-673AB7-labelson-nodesc</styleUrl>
      <Point>
        <coordinates>
          121.520859,31.2269271,0
        </coordinates>
      </Point>
    </Placemark>
  </Document>
</kml>
